[
  {
    "name": "Rubicon Programs - Career Advancement Center",
    "primary_category": "employment",
    "categories": ["employment", "education"],
    "description": "Provides job training, placement services, and career counseling for Oakland residents. Specializes in helping individuals with barriers to employment, including criminal records.",
    "services": [
      "Job readiness training",
      "Resume writing",
      "Interview preparation",
      "Job placement",
      "Career counseling",
      "Vocational training"
    ],
    "address": "2500 Bissell Ave",
    "city": "Oakland",
    "state": "CA",
    "zip_code": "94601",
    "latitude": 37.7855,
    "longitude": -122.2357,
    "phone": "(510) 412-1725",
    "email": "employment@rubiconprograms.org",
    "website": "https://www.rubiconprograms.org",
    "hours": "Mon-Fri 8am-5pm",
    "eligibility_criteria": "Open to all Oakland residents, specializes in serving individuals with criminal records",
    "languages": ["English", "Spanish"],
    "accessibility": "Wheelchair accessible, public transit nearby",
    "tags": ["reentry-friendly", "second-chance-employer", "case-management", "skills-training"],
    "status": "active",
    "verified": true,
    "ai_enriched": false,
    "completeness_score": 0.95,
    "verification_score": 0.9
  },
  {
    "name": "Oakland Private Industry Council (PIC)",
    "primary_category": "employment",
    "categories": ["employment", "education"],
    "description": "Workforce development organization offering job training, placement services, and support for youth and adults in Oakland.",
    "services": [
      "Job training",
      "Career counseling",
      "Youth programs",
      "Adult education",
      "Job placement assistance"
    ],
    "address": "1212 Broadway, Suite 300",
    "city": "Oakland",
    "state": "CA",
    "zip_code": "94612",
    "latitude": 37.802,
    "longitude": -122.2723,
    "phone": "(510) 768-3900",
    "email": "info@oaklandpic.org",
    "website": "https://www.oaklandpic.org",
    "hours": "Mon-Fri 9am-5pm",
    "eligibility_criteria": "Oakland residents seeking employment services",
    "languages": ["English", "Spanish", "Chinese"],
    "accessibility": "Wheelchair accessible, elevator access",
    "tags": ["reentry-friendly", "youth-programs", "adult-education"],
    "status": "active",
    "verified": true,
    "ai_enriched": false,
    "completeness_score": 0.9,
    "verification_score": 0.85
  },
  {
    "name": "Cypress Mandela Training Center",
    "primary_category": "employment",
    "categories": ["employment", "education"],
    "description": "Pre-apprenticeship construction training program for Oakland residents. Provides hands-on skills training and job placement in the building trades.",
    "services": [
      "Construction training",
      "Pre-apprenticeship programs",
      "Job placement",
      "Financial literacy",
      "Life skills coaching"
    ],
    "address": "1701 35th Ave",
    "city": "Oakland",
    "state": "CA",
    "zip_code": "94601",
    "latitude": 37.7771,
    "longitude": -122.225,
    "phone": "(510) 208-7986",
    "email": "info@cypressmandela.org",
    "website": "https://www.cypressmandela.org",
    "hours": "Mon-Fri 8am-4pm",
    "eligibility_criteria": "Oakland residents interested in construction careers, particularly those facing barriers to employment",
    "languages": ["English", "Spanish"],
    "accessibility": "Wheelchair accessible, training facility",
    "tags": ["reentry-friendly", "construction-trades", "apprenticeship", "hands-on-training"],
    "status": "active",
    "verified": true,
    "ai_enriched": false,
    "completeness_score": 0.92,
    "verification_score": 0.88
  },
  {
    "name": "The Homecoming Project",
    "primary_category": "employment",
    "categories": ["employment", "general-support"],
    "description": "Comprehensive reentry services including employment support, case management, and community connection for formerly incarcerated individuals.",
    "services": [
      "Employment assistance",
      "Case management",
      "Mentorship",
      "Support groups",
      "Resource navigation"
    ],
    "address": "1419 34th Ave",
    "city": "Oakland",
    "state": "CA",
    "zip_code": "94601",
    "latitude": 37.7797,
    "longitude": -122.2269,
    "phone": "(510) 533-7233",
    "email": "info@homecomingproject.org",
    "website": "https://www.homecomingproject.org",
    "hours": "Mon-Fri 9am-6pm, Sat 10am-2pm",
    "eligibility_criteria": "Formerly incarcerated individuals returning to Oakland",
    "languages": ["English", "Spanish"],
    "accessibility": "Wheelchair accessible",
    "tags": ["reentry-specific", "case-management", "peer-support", "mentorship"],
    "status": "active",
    "verified": true,
    "ai_enriched": false,
    "completeness_score": 0.93,
    "verification_score": 0.9
  },
  {
    "name": "Building Opportunities for Self-Sufficiency (BOSS)",
    "primary_category": "employment",
    "categories": ["employment", "housing", "general-support"],
    "description": "Provides employment services, housing assistance, and support for homeless and low-income individuals in Oakland.",
    "services": [
      "Job training",
      "Employment placement",
      "Housing navigation",
      "Benefits assistance",
      "Case management"
    ],
    "address": "2065 Kittredge St, Suite E",
    "city": "Oakland",
    "state": "CA",
    "zip_code": "94704",
    "latitude": 37.8711,
    "longitude": -122.2686,
    "phone": "(510) 649-1930",
    "email": "info@self-sufficiency.org",
    "website": "https://www.self-sufficiency.org",
    "hours": "Mon-Fri 9am-5pm",
    "eligibility_criteria": "Low-income and homeless individuals in Oakland",
    "languages": ["English", "Spanish"],
    "accessibility": "Wheelchair accessible",
    "tags": ["reentry-friendly", "homeless-services", "benefits-assistance"],
    "status": "active",
    "verified": true,
    "ai_enriched": false,
    "completeness_score": 0.91,
    "verification_score": 0.87
  },
  {
    "name": "Building Hope Transitional Housing",
    "primary_category": "housing",
    "categories": ["housing", "general-support"],
    "description": "Transitional housing program for formerly incarcerated men providing safe, supportive housing while they rebuild their lives.",
    "services": [
      "Transitional housing",
      "Case management",
      "Life skills training",
      "Employment support",
      "Peer mentorship"
    ],
    "address": "3240 E 12th St",
    "city": "Oakland",
    "state": "CA",
    "zip_code": "94601",
    "latitude": 37.7908,
    "longitude": -122.2238,
    "phone": "(510) 533-7155",
    "email": "info@buildinghopeoakland.org",
    "website": "https://www.buildinghopeoakland.org",
    "hours": "24/7 residential facility, office hours Mon-Fri 9am-5pm",
    "eligibility_criteria": "Men recently released from incarceration, must be referred by parole or probation",
    "languages": ["English", "Spanish"],
    "accessibility": "Limited accessibility, call for details",
    "tags": ["reentry-specific", "transitional-housing", "men-only", "case-management"],
    "status": "active",
    "verified": true,
    "ai_enriched": false,
    "completeness_score": 0.94,
    "verification_score": 0.89
  },
  {
    "name": "East Bay Housing Organizations (EBHO)",
    "primary_category": "housing",
    "categories": ["housing"],
    "description": "Provides housing counseling, rental assistance information, and resources for finding affordable housing in Oakland.",
    "services": [
      "Housing counseling",
      "Rental assistance information",
      "First-time homebuyer education",
      "Foreclosure prevention",
      "Tenant rights education"
    ],
    "address": "1611 Telegraph Ave, Suite 501",
    "city": "Oakland",
    "state": "CA",
    "zip_code": "94612",
    "latitude": 37.8074,
    "longitude": -122.2712,
    "phone": "(510) 663-3830",
    "email": "info@ebho.org",
    "website": "https://www.ebho.org",
    "hours": "Mon-Fri 9am-5pm",
    "eligibility_criteria": "Low to moderate income Oakland residents seeking housing assistance",
    "languages": ["English", "Spanish", "Chinese"],
    "accessibility": "Wheelchair accessible",
    "tags": ["housing-counseling", "rental-assistance", "tenant-rights"],
    "status": "active",
    "verified": true,
    "ai_enriched": false,
    "completeness_score": 0.89,
    "verification_score": 0.86
  },
  {
    "name": "LifeLong Medical Care - Fruitvale Community Clinic",
    "primary_category": "housing",
    "categories": ["housing", "general-support"],
    "description": "Homeless outreach and housing navigation services as part of comprehensive community health center.",
    "services": [
      "Housing navigation",
      "Homeless outreach",
      "Benefits enrollment",
      "Medical respite care",
      "Case management"
    ],
    "address": "3316 E 12th St",
    "city": "Oakland",
    "state": "CA",
    "zip_code": "94601",
    "latitude": 37.7912,
    "longitude": -122.2225,
    "phone": "(510) 535-4700",
    "email": "housing@lifelongmedical.org",
    "website": "https://www.lifelongmedical.org",
    "hours": "Mon-Fri 8am-6pm, Sat 9am-1pm",
    "eligibility_criteria": "Uninsured or underinsured Oakland residents, homeless individuals prioritized",
    "languages": ["English", "Spanish", "Mam"],
    "accessibility": "Wheelchair accessible, medical facility",
    "tags": ["homeless-services", "medical-respite", "benefits-enrollment"],
    "status": "active",
    "verified": true,
    "ai_enriched": false,
    "completeness_score": 0.9,
    "verification_score": 0.88
  },
  {
    "name": "Oakland Housing Authority - Supportive Housing",
    "primary_category": "housing",
    "categories": ["housing"],
    "description": "Provides supportive housing and Section 8 voucher information for low-income Oakland residents.",
    "services": [
      "Supportive housing programs",
      "Section 8 voucher information",
      "Public housing",
      "Housing navigation"
    ],
    "address": "1619 Harrison St",
    "city": "Oakland",
    "state": "CA",
    "zip_code": "94612",
    "latitude": 37.8069,
    "longitude": -122.2679,
    "phone": "(510) 874-1500",
    "email": "info@oakha.org",
    "website": "https://www.oakha.org",
    "hours": "Mon-Fri 8am-5pm",
    "eligibility_criteria": "Very low income Oakland residents, priority for homeless and disabled individuals",
    "languages": ["English", "Spanish", "Cantonese", "Vietnamese"],
    "accessibility": "Wheelchair accessible, ADA compliant",
    "tags": ["section-8", "public-housing", "government-agency"],
    "status": "active",
    "verified": true,
    "ai_enriched": false,
    "completeness_score": 0.88,
    "verification_score": 0.9
  },
  {
    "name": "St. Mary's Center",
    "primary_category": "housing",
    "categories": ["housing", "food", "general-support"],
    "description": "Comprehensive services for homeless and low-income seniors and adults, including housing assistance, meals, and case management.",
    "services": [
      "Senior housing",
      "Meals program",
      "Case management",
      "Housing navigation",
      "Benefits assistance",
      "Adult day services"
    ],
    "address": "925 Brockhurst St",
    "city": "Oakland",
    "state": "CA",
    "zip_code": "94608",
    "latitude": 37.8311,
    "longitude": -122.2701,
    "phone": "(510) 658-4948",
    "email": "info@stmaryscenter.org",
    "website": "https://www.stmaryscenter.org",
    "hours": "Mon-Fri 8:30am-4:30pm",
    "eligibility_criteria": "Low-income adults 55+ in Oakland",
    "languages": ["English", "Spanish"],
    "accessibility": "Wheelchair accessible, senior-friendly",
    "tags": ["senior-services", "meals", "case-management"],
    "status": "active",
    "verified": true,
    "ai_enriched": false,
    "completeness_score": 0.92,
    "verification_score": 0.89
  },
  {
    "name": "Alameda County Community Food Bank",
    "primary_category": "food",
    "categories": ["food"],
    "description": "Large food bank serving Alameda County with Oakland distribution sites. Provides groceries and fresh produce to families in need.",
    "services": [
      "Food pantry",
      "Emergency food boxes",
      "Fresh produce distribution",
      "CalFresh enrollment",
      "Nutrition education"
    ],
    "address": "7900 Edgewater Dr",
    "city": "Oakland",
    "state": "CA",
    "zip_code": "94621",
    "latitude": 37.7334,
    "longitude": -122.1859,
    "phone": "(510) 635-3663",
    "email": "info@accfb.org",
    "website": "https://www.accfb.org",
    "hours": "Mon-Fri 9am-5pm, Distribution times vary by site",
    "eligibility_criteria": "Low-income individuals and families in Alameda County",
    "languages": ["English", "Spanish", "Chinese", "Vietnamese"],
    "accessibility": "Wheelchair accessible, drive-through distribution available",
    "tags": ["food-pantry", "calfresh", "fresh-produce"],
    "status": "active",
    "verified": true,
    "ai_enriched": false,
    "completeness_score": 0.93,
    "verification_score": 0.91
  },
  {
    "name": "St. Vincent de Paul - Oakland Dining Room",
    "primary_category": "food",
    "categories": ["food"],
    "description": "Free hot meals served daily, no questions asked. One of Oakland's longest-running meal programs serving the homeless and low-income community.",
    "services": ["Free hot meals", "Take-away meal bags", "Weekend meal service"],
    "address": "234 29th St",
    "city": "Oakland",
    "state": "CA",
    "zip_code": "94611",
    "latitude": 37.8161,
    "longitude": -122.2619,
    "phone": "(510) 638-7600",
    "email": "svdpoakland@gmail.com",
    "website": "https://www.svdp-oakland.org",
    "hours": "Meals served Mon-Sat 10:30am-11:30am, Sun 10am-11am",
    "eligibility_criteria": "Open to all, no requirements",
    "languages": ["English", "Spanish"],
    "accessibility": "Wheelchair accessible, outdoor dining area",
    "tags": ["free-meals", "no-questions-asked", "daily-service"],
    "status": "active",
    "verified": true,
    "ai_enriched": false,
    "completeness_score": 0.87,
    "verification_score": 0.88
  },
  {
    "name": "Lakeview Pantry at Lake Merritt United Methodist Church",
    "primary_category": "food",
    "categories": ["food", "faith-based"],
    "description": "Community food pantry providing groceries to Oakland families. Open to all regardless of faith or background.",
    "services": ["Food pantry", "Grocery distribution", "Holiday food baskets"],
    "address": "1330 Lakeshore Ave",
    "city": "Oakland",
    "state": "CA",
    "zip_code": "94606",
    "latitude": 37.8068,
    "longitude": -122.2517,
    "phone": "(510) 465-4793",
    "email": "pantry@lmumc.org",
    "website": "https://www.lmumc.org/pantry",
    "hours": "Tue 1pm-3pm, Thu 1pm-3pm, Sat 10am-12pm",
    "eligibility_criteria": "Oakland residents in need, proof of Oakland residency required",
    "languages": ["English", "Spanish"],
    "accessibility": "Wheelchair accessible, street parking available",
    "tags": ["food-pantry", "faith-based", "groceries"],
    "status": "active",
    "verified": true,
    "ai_enriched": false,
    "completeness_score": 0.86,
    "verification_score": 0.85
  },
  {
    "name": "Oakland Unified School District - Community Meals",
    "primary_category": "food",
    "categories": ["food"],
    "description": "Free meals for children and families at various Oakland school sites. Summer meal program and after-school nutrition.",
    "services": [
      "Free breakfast and lunch",
      "Summer meal program",
      "After-school snacks",
      "Weekend meal bags"
    ],
    "address": "1000 Broadway, Suite 440",
    "city": "Oakland",
    "state": "CA",
    "zip_code": "94607",
    "latitude": 37.7983,
    "longitude": -122.2744,
    "phone": "(510) 879-8242",
    "email": "meals@ousd.org",
    "website": "https://www.ousd.org/meals",
    "hours": "School year: Mon-Fri 7:30am-8:30am, 11am-1pm. Summer: varies by site",
    "eligibility_criteria": "All children 18 and under, no income requirements",
    "languages": ["English", "Spanish", "Chinese", "Vietnamese", "Arabic"],
    "accessibility": "Wheelchair accessible at all school sites",
    "tags": ["youth-meals", "free-meals", "summer-program"],
    "status": "active",
    "verified": true,
    "ai_enriched": false,
    "completeness_score": 0.89,
    "verification_score": 0.9
  },
  {
    "name": "LifeLong Medical Care - Multiple Clinics",
    "primary_category": "healthcare",
    "categories": ["healthcare"],
    "description": "Network of community health clinics providing comprehensive primary care to uninsured and underinsured Oakland residents.",
    "services": [
      "Primary care",
      "Dental care",
      "Vision care",
      "Pharmacy",
      "Health insurance enrollment",
      "Sliding fee scale"
    ],
    "address": "3725 Telegraph Ave",
    "city": "Oakland",
    "state": "CA",
    "zip_code": "94609",
    "latitude": 37.8269,
    "longitude": -122.2622,
    "phone": "(510) 981-4100",
    "email": "info@lifelongmedical.org",
    "website": "https://www.lifelongmedical.org",
    "hours": "Mon-Fri 8am-6pm, Sat 9am-1pm (varies by location)",
    "eligibility_criteria": "All Oakland residents, sliding fee scale based on income, no one turned away",
    "languages": ["English", "Spanish", "Cantonese", "Mandarin", "Mam"],
    "accessibility": "Wheelchair accessible, multiple locations throughout Oakland",
    "tags": ["community-health", "sliding-scale", "uninsured-friendly"],
    "status": "active",
    "verified": true,
    "ai_enriched": false,
    "completeness_score": 0.94,
    "verification_score": 0.92
  },
  {
    "name": "Tiburcio Vasquez Health Center",
    "primary_category": "healthcare",
    "categories": ["healthcare", "mental-health"],
    "description": "Federally Qualified Health Center providing comprehensive medical, dental, and behavioral health services to the Latino community and all Oakland residents.",
    "services": [
      "Primary care",
      "Dental care",
      "Behavioral health",
      "Chronic disease management",
      "Medi-Cal enrollment"
    ],
    "address": "3121 International Blvd",
    "city": "Oakland",
    "state": "CA",
    "zip_code": "94601",
    "latitude": 37.7885,
    "longitude": -122.2262,
    "phone": "(510) 535-6300",
    "email": "info@tvhc.org",
    "website": "https://www.tvhc.org",
    "hours": "Mon-Fri 8:30am-5:30pm, Sat 9am-1pm",
    "eligibility_criteria": "All Oakland residents regardless of immigration status or ability to pay",
    "languages": ["English", "Spanish", "Mam"],
    "accessibility": "Wheelchair accessible, on-site pharmacy",
    "tags": ["fqhc", "bilingual", "immigrant-friendly"],
    "status": "active",
    "verified": true,
    "ai_enriched": false,
    "completeness_score": 0.91,
    "verification_score": 0.89
  },
  {
    "name": "Alameda Health Consortium - West Oakland Health Center",
    "primary_category": "healthcare",
    "categories": ["healthcare"],
    "description": "Community health center serving West Oakland with primary care, pediatrics, and specialty services.",
    "services": [
      "Primary care",
      "Pediatrics",
      "Women's health",
      "Chronic disease management",
      "Health education"
    ],
    "address": "700 Adeline St",
    "city": "Oakland",
    "state": "CA",
    "zip_code": "94607",
    "latitude": 37.8047,
    "longitude": -122.2821,
    "phone": "(510) 835-9610",
    "email": "info@ahcoak.org",
    "website": "https://www.ahcoak.org",
    "hours": "Mon-Fri 8am-5pm",
    "eligibility_criteria": "West Oakland residents, sliding fee scale available",
    "languages": ["English", "Spanish"],
    "accessibility": "Wheelchair accessible, public transit accessible",
    "tags": ["community-health", "west-oakland", "sliding-scale"],
    "status": "active",
    "verified": true,
    "ai_enriched": false,
    "completeness_score": 0.88,
    "verification_score": 0.87
  },
  {
    "name": "La Familia Counseling Service",
    "primary_category": "mental-health",
    "categories": ["mental-health", "substance-abuse-treatment"],
    "description": "Culturally responsive mental health and substance abuse treatment services for Latino families and individuals in Oakland.",
    "services": [
      "Individual therapy",
      "Family therapy",
      "Substance abuse counseling",
      "Crisis intervention",
      "Case management"
    ],
    "address": "1733 Franklin St, Suite 200",
    "city": "Oakland",
    "state": "CA",
    "zip_code": "94612",
    "latitude": 37.808,
    "longitude": -122.2703,
    "phone": "(510) 834-2988",
    "email": "info@lafamiliacounseling.org",
    "website": "https://www.lafamiliacounseling.org",
    "hours": "Mon-Fri 9am-6pm, some evening hours available",
    "eligibility_criteria": "Oakland residents, sliding fee scale, Medi-Cal accepted",
    "languages": ["English", "Spanish"],
    "accessibility": "Wheelchair accessible",
    "tags": ["bilingual", "family-therapy", "substance-abuse", "culturally-responsive"],
    "status": "active",
    "verified": true,
    "ai_enriched": false,
    "completeness_score": 0.9,
    "verification_score": 0.88
  },
  {
    "name": "Bonita House - Mental Health & Wellness Center",
    "primary_category": "mental-health",
    "categories": ["mental-health"],
    "description": "Community mental health center providing counseling, psychiatric services, and peer support for Oakland residents.",
    "services": [
      "Individual therapy",
      "Group therapy",
      "Psychiatric medication management",
      "Peer support groups",
      "Crisis counseling"
    ],
    "address": "410 30th St",
    "city": "Oakland",
    "state": "CA",
    "zip_code": "94611",
    "latitude": 37.8198,
    "longitude": -122.2599,
    "phone": "(510) 433-5500",
    "email": "info@bonitahouse.org",
    "website": "https://www.bonitahouse.org",
    "hours": "Mon-Fri 9am-8pm, Sat 10am-4pm",
    "eligibility_criteria": "Oakland residents experiencing mental health challenges, sliding fee scale",
    "languages": ["English", "Spanish"],
    "accessibility": "Wheelchair accessible, peer support groups",
    "tags": ["community-mental-health", "peer-support", "sliding-scale"],
    "status": "active",
    "verified": true,
    "ai_enriched": false,
    "completeness_score": 0.89,
    "verification_score": 0.86
  },
  {
    "name": "Bay Area Community Services (BACS)",
    "primary_category": "mental-health",
    "categories": ["mental-health", "housing"],
    "description": "Mental health services and supportive housing for individuals with serious mental illness and co-occurring disorders.",
    "services": [
      "Case management",
      "Psychiatric services",
      "Supportive housing",
      "Employment support",
      "Peer support"
    ],
    "address": "1340 Arnold Dr, Suite 200",
    "city": "Oakland",
    "state": "CA",
    "zip_code": "94602",
    "latitude": 37.7625,
    "longitude": -122.1571,
    "phone": "(510) 613-0330",
    "email": "info@bayareacs.org",
    "website": "https://www.bayareacs.org",
    "hours": "Mon-Fri 8:30am-5pm, 24/7 crisis line",
    "eligibility_criteria": "Adults with serious mental illness, Medi-Cal accepted",
    "languages": ["English", "Spanish"],
    "accessibility": "Wheelchair accessible, multiple locations",
    "tags": ["serious-mental-illness", "supportive-housing", "24-7-crisis"],
    "status": "active",
    "verified": true,
    "ai_enriched": false,
    "completeness_score": 0.91,
    "verification_score": 0.89
  },
  {
    "name": "HealthRIGHT 360 - Oakland Center",
    "primary_category": "substance-abuse-treatment",
    "categories": ["substance-abuse-treatment", "mental-health"],
    "description": "Comprehensive substance abuse treatment including residential, outpatient, and medication-assisted treatment programs.",
    "services": [
      "Residential treatment",
      "Outpatient counseling",
      "Medication-assisted treatment (MAT)",
      "Dual diagnosis treatment",
      "Perinatal services"
    ],
    "address": "1505 Fruitvale Ave",
    "city": "Oakland",
    "state": "CA",
    "zip_code": "94601",
    "latitude": 37.7813,
    "longitude": -122.2248,
    "phone": "(510) 535-1190",
    "email": "info@healthright360.org",
    "website": "https://www.healthright360.org",
    "hours": "Mon-Fri 8am-6pm, 24/7 residential services",
    "eligibility_criteria": "Individuals struggling with substance abuse, sliding fee scale, Medi-Cal accepted",
    "languages": ["English", "Spanish"],
    "accessibility": "Wheelchair accessible, gender-specific programs available",
    "tags": ["mat", "residential-treatment", "dual-diagnosis", "perinatal"],
    "status": "active",
    "verified": true,
    "ai_enriched": false,
    "completeness_score": 0.93,
    "verification_score": 0.9
  },
  {
    "name": "Options Recovery Services",
    "primary_category": "substance-abuse-treatment",
    "categories": ["substance-abuse-treatment", "mental-health"],
    "description": "Outpatient substance abuse treatment with a focus on trauma-informed care and recovery support.",
    "services": [
      "Outpatient counseling",
      "Group therapy",
      "Individual therapy",
      "Family education",
      "Recovery coaching",
      "Relapse prevention"
    ],
    "address": "2045 Franklin St, Suite 205",
    "city": "Oakland",
    "state": "CA",
    "zip_code": "94612",
    "latitude": 37.8115,
    "longitude": -122.2688,
    "phone": "(510) 535-6900",
    "email": "info@optionsrecovery.org",
    "website": "https://www.optionsrecovery.org",
    "hours": "Mon-Thu 9am-8pm, Fri 9am-5pm",
    "eligibility_criteria": "Adults seeking substance abuse treatment, sliding fee scale",
    "languages": ["English", "Spanish"],
    "accessibility": "Wheelchair accessible",
    "tags": ["outpatient", "trauma-informed", "recovery-coaching"],
    "status": "active",
    "verified": true,
    "ai_enriched": false,
    "completeness_score": 0.88,
    "verification_score": 0.85
  },
  {
    "name": "MedMark Treatment Centers Oakland",
    "primary_category": "substance-abuse-treatment",
    "categories": ["substance-abuse-treatment"],
    "description": "Medication-assisted treatment (MAT) clinic specializing in methadone and buprenorphine treatment for opioid addiction.",
    "services": [
      "Methadone treatment",
      "Buprenorphine treatment",
      "Individual counseling",
      "Group counseling",
      "Urine drug screening"
    ],
    "address": "2740 International Blvd",
    "city": "Oakland",
    "state": "CA",
    "zip_code": "94601",
    "latitude": 37.7847,
    "longitude": -122.2292,
    "phone": "(510) 533-7100",
    "email": "oakland@medmark.com",
    "website": "https://www.medmarktreatment.com",
    "hours": "Mon-Sat 5:30am-12pm, Sun 6am-10am",
    "eligibility_criteria": "Adults with opioid use disorder, self-pay and Medi-Cal accepted",
    "languages": ["English", "Spanish"],
    "accessibility": "Wheelchair accessible, early morning hours",
    "tags": ["mat", "methadone", "buprenorphine", "opioid-treatment"],
    "status": "active",
    "verified": true,
    "ai_enriched": false,
    "completeness_score": 0.9,
    "verification_score": 0.88
  },
  {
    "name": "East Bay Community Law Center",
    "primary_category": "legal-aid",
    "categories": ["legal-aid"],
    "description": "Free legal services for low-income Oakland residents, including criminal record clearing, housing defense, and public benefits advocacy.",
    "services": [
      "Criminal record expungement",
      "Clean slate",
      "Housing defense",
      "Public benefits advocacy",
      "Immigration legal services"
    ],
    "address": "2921 Adeline St",
    "city": "Oakland",
    "state": "CA",
    "zip_code": "94703",
    "latitude": 37.8551,
    "longitude": -122.2685,
    "phone": "(510) 548-4040",
    "email": "info@ebclc.org",
    "website": "https://www.ebclc.org",
    "hours": "Mon-Fri 9am-5pm, walk-in hours vary by clinic",
    "eligibility_criteria": "Low-income Oakland residents, income guidelines apply",
    "languages": ["English", "Spanish"],
    "accessibility": "Wheelchair accessible",
    "tags": ["expungement", "clean-slate", "free-legal-aid", "reentry-friendly"],
    "status": "active",
    "verified": true,
    "ai_enriched": false,
    "completeness_score": 0.92,
    "verification_score": 0.91
  },
  {
    "name": "Bay Area Legal Aid - Oakland Office",
    "primary_category": "legal-aid",
    "categories": ["legal-aid"],
    "description": "Free civil legal services for low-income individuals and families in Alameda County. Handles housing, public benefits, and consumer issues.",
    "services": [
      "Housing legal aid",
      "Eviction defense",
      "Public benefits appeals",
      "Consumer protection",
      "Domestic violence restraining orders"
    ],
    "address": "1800 Harrison St, 17th Floor",
    "city": "Oakland",
    "state": "CA",
    "zip_code": "94612",
    "latitude": 37.8082,
    "longitude": -122.2669,
    "phone": "(510) 250-5270",
    "email": "intake@baylegal.org",
    "website": "https://www.baylegal.org",
    "hours": "Mon-Fri 9am-5pm, intake by phone",
    "eligibility_criteria": "Low-income individuals and families, 125% of federal poverty level",
    "languages": ["English", "Spanish", "Chinese", "Vietnamese"],
    "accessibility": "Wheelchair accessible, phone intake available",
    "tags": ["housing-defense", "eviction-defense", "benefits-appeals"],
    "status": "active",
    "verified": true,
    "ai_enriched": false,
    "completeness_score": 0.91,
    "verification_score": 0.9
  },
  {
    "name": "Legal Services for Prisoners with Children (LSPC)",
    "primary_category": "legal-aid",
    "categories": ["legal-aid", "general-support"],
    "description": "Legal advocacy organization fighting for the rights of incarcerated parents, children, and families. Provides know-your-rights education and policy advocacy.",
    "services": [
      "Legal advocacy",
      "Know-your-rights workshops",
      "Policy advocacy",
      "Community education",
      "Family reunification support"
    ],
    "address": "1540 Market St, Suite 490",
    "city": "Oakland",
    "state": "CA",
    "zip_code": "94607",
    "latitude": 37.8035,
    "longitude": -122.2714,
    "phone": "(510) 845-8982",
    "email": "info@prisonerswithchildren.org",
    "website": "https://www.prisonerswithchildren.org",
    "hours": "Mon-Fri 9am-5pm",
    "eligibility_criteria": "Incarcerated parents, formerly incarcerated individuals, families affected by incarceration",
    "languages": ["English", "Spanish"],
    "accessibility": "Wheelchair accessible",
    "tags": ["reentry-specific", "family-reunification", "policy-advocacy"],
    "status": "active",
    "verified": true,
    "ai_enriched": false,
    "completeness_score": 0.89,
    "verification_score": 0.87
  },
  {
    "name": "AC Transit - Clipper START Program",
    "primary_category": "transportation",
    "categories": ["transportation"],
    "description": "Discounted transit passes for low-income riders on AC Transit buses throughout Oakland and the East Bay.",
    "services": ["Discounted transit passes", "Monthly pass program", "Clipper card assistance"],
    "address": "1600 Franklin St",
    "city": "Oakland",
    "state": "CA",
    "zip_code": "94612",
    "latitude": 37.8074,
    "longitude": -122.2686,
    "phone": "(510) 891-4777",
    "email": "customerservice@actransit.org",
    "website": "https://www.actransit.org/clipper-start",
    "hours": "Mon-Fri 8am-5pm (phone support)",
    "eligibility_criteria": "Income at or below 200% of federal poverty level",
    "languages": ["English", "Spanish", "Chinese"],
    "accessibility": "All buses wheelchair accessible",
    "tags": ["public-transit", "discounted-passes", "low-income"],
    "status": "active",
    "verified": true,
    "ai_enriched": false,
    "completeness_score": 0.86,
    "verification_score": 0.88
  },
  {
    "name": "Cycles of Change",
    "primary_category": "transportation",
    "categories": ["transportation", "education"],
    "description": "Bicycle education and distribution program providing free bikes and safety training to Oakland youth and adults.",
    "services": [
      "Free bicycles",
      "Bike repair training",
      "Safety education",
      "Bike maintenance classes"
    ],
    "address": "4265 Piedmont Ave",
    "city": "Oakland",
    "state": "CA",
    "zip_code": "94611",
    "latitude": 37.8312,
    "longitude": -122.2509,
    "phone": "(510) 985-4554",
    "email": "info@cyclesofchange.org",
    "website": "https://www.cyclesofchange.org",
    "hours": "Tue-Sat 10am-5pm",
    "eligibility_criteria": "Oakland residents, priority for low-income individuals and families",
    "languages": ["English", "Spanish"],
    "accessibility": "Ground-level access, bike shop environment",
    "tags": ["free-bikes", "bike-education", "youth-programs"],
    "status": "active",
    "verified": true,
    "ai_enriched": false,
    "completeness_score": 0.87,
    "verification_score": 0.85
  },
  {
    "name": "Alameda County Social Services - CalFresh & General Assistance",
    "primary_category": "id-documents",
    "categories": ["id-documents", "general-support"],
    "description": "County social services providing benefits enrollment and assistance obtaining identification documents.",
    "services": [
      "CalFresh (food stamps)",
      "General Assistance",
      "Medi-Cal enrollment",
      "Birth certificate assistance",
      "ID replacement help"
    ],
    "address": "401 Broadway",
    "city": "Oakland",
    "state": "CA",
    "zip_code": "94607",
    "latitude": 37.7978,
    "longitude": -122.276,
    "phone": "(510) 267-8800",
    "email": "info@acgov.org",
    "website": "https://www.alamedacountysocialservices.org",
    "hours": "Mon-Fri 8am-5pm",
    "eligibility_criteria": "Alameda County residents, varies by program",
    "languages": ["English", "Spanish", "Chinese", "Vietnamese", "Tagalog"],
    "accessibility": "Wheelchair accessible, ADA compliant",
    "tags": ["government-benefits", "calfresh", "id-assistance"],
    "status": "active",
    "verified": true,
    "ai_enriched": false,
    "completeness_score": 0.9,
    "verification_score": 0.92
  },
  {
    "name": "DMV Field Office - Oakland Claremont",
    "primary_category": "id-documents",
    "categories": ["id-documents"],
    "description": "California Department of Motor Vehicles office providing ID cards, driver's licenses, and vehicle registration.",
    "services": [
      "California ID cards",
      "Driver's licenses",
      "Vehicle registration",
      "REAL ID",
      "Disabled person parking placards"
    ],
    "address": "5300 Claremont Ave",
    "city": "Oakland",
    "state": "CA",
    "zip_code": "94618",
    "latitude": 37.8451,
    "longitude": -122.2517,
    "phone": "(800) 777-0133",
    "email": null,
    "website": "https://www.dmv.ca.gov",
    "hours": "Mon, Tue, Thu, Fri 8am-5pm, Wed 9am-5pm, closed weekends",
    "eligibility_criteria": "California residents, proof of identity and residency required",
    "languages": ["English", "Spanish"],
    "accessibility": "Wheelchair accessible, appointment recommended",
    "tags": ["government-agency", "id-cards", "drivers-license"],
    "status": "active",
    "verified": true,
    "ai_enriched": false,
    "completeness_score": 0.88,
    "verification_score": 0.91
  },
  {
    "name": "Laney College",
    "primary_category": "education",
    "categories": ["education", "employment"],
    "description": "Community college offering degree programs, vocational training, and adult education including GED preparation.",
    "services": [
      "GED preparation",
      "Vocational training",
      "Associate degrees",
      "Career technical education",
      "Adult education",
      "ESL classes"
    ],
    "address": "900 Fallon St",
    "city": "Oakland",
    "state": "CA",
    "zip_code": "94607",
    "latitude": 37.7946,
    "longitude": -122.2643,
    "phone": "(510) 834-5740",
    "email": "info@laney.edu",
    "website": "https://www.laney.edu",
    "hours": "Mon-Thu 8am-7pm, Fri 8am-5pm",
    "eligibility_criteria": "California residents, free for low-income students via Board of Governors Fee Waiver",
    "languages": ["English", "Spanish", "Chinese"],
    "accessibility": "Wheelchair accessible, DSPS services available",
    "tags": ["community-college", "ged", "vocational-training", "financial-aid"],
    "status": "active",
    "verified": true,
    "ai_enriched": false,
    "completeness_score": 0.92,
    "verification_score": 0.93
  },
  {
    "name": "Oakland Adult & Career Education (OACE)",
    "primary_category": "education",
    "categories": ["education"],
    "description": "Adult education programs including high school diploma, GED, ESL, and career technical education.",
    "services": [
      "High school diploma",
      "GED preparation",
      "ESL classes",
      "Citizenship classes",
      "Computer skills",
      "Vocational training"
    ],
    "address": "Multiple locations - main office 1025 2nd Ave",
    "city": "Oakland",
    "state": "CA",
    "zip_code": "94606",
    "latitude": 37.7977,
    "longitude": -122.2519,
    "phone": "(510) 535-7860",
    "email": "info@ousd.org",
    "website": "https://www.ousd.org/oace",
    "hours": "Mon-Fri 9am-5pm, evening classes available",
    "eligibility_criteria": "Adults 18+ seeking education, free for Oakland residents",
    "languages": ["English", "Spanish", "Chinese", "Vietnamese"],
    "accessibility": "Wheelchair accessible at most locations",
    "tags": ["adult-education", "ged", "esl", "free-classes"],
    "status": "active",
    "verified": true,
    "ai_enriched": false,
    "completeness_score": 0.89,
    "verification_score": 0.87
  },
  {
    "name": "Merritt College",
    "primary_category": "education",
    "categories": ["education", "employment"],
    "description": "Community college in the Oakland hills offering degree and certificate programs with strong health sciences and environmental programs.",
    "services": [
      "Associate degrees",
      "Certificate programs",
      "Transfer preparation",
      "Nursing programs",
      "Environmental science",
      "Adult education"
    ],
    "address": "12500 Campus Dr",
    "city": "Oakland",
    "state": "CA",
    "zip_code": "94619",
    "latitude": 37.7845,
    "longitude": -122.1798,
    "phone": "(510) 434-3900",
    "email": "info@merritt.edu",
    "website": "https://www.merritt.edu",
    "hours": "Mon-Thu 8am-6pm, Fri 8am-5pm",
    "eligibility_criteria": "California residents, free for low-income students via fee waivers",
    "languages": ["English", "Spanish"],
    "accessibility": "Wheelchair accessible, shuttle service from parking",
    "tags": ["community-college", "nursing", "transfer-programs"],
    "status": "active",
    "verified": true,
    "ai_enriched": false,
    "completeness_score": 0.88,
    "verification_score": 0.89
  },
  {
    "name": "Oakland Community Clothes Closet",
    "primary_category": "clothing",
    "categories": ["clothing"],
    "description": "Free clothing closet providing professional attire for job interviews and everyday clothing for families in need.",
    "services": [
      "Professional clothing",
      "Casual clothing",
      "Interview attire",
      "Children's clothing",
      "Shoes and accessories"
    ],
    "address": "4501 Lincoln Ave",
    "city": "Oakland",
    "state": "CA",
    "zip_code": "94602",
    "latitude": 37.7692,
    "longitude": -122.1875,
    "phone": "(510) 482-3225",
    "email": "clothescloset@oakland.org",
    "website": null,
    "hours": "Tue 10am-2pm, Thu 10am-2pm, Sat 10am-2pm",
    "eligibility_criteria": "Oakland residents in need, referral letter helpful but not required",
    "languages": ["English", "Spanish"],
    "accessibility": "Wheelchair accessible",
    "tags": ["free-clothing", "professional-attire", "job-interview"],
    "status": "active",
    "verified": true,
    "ai_enriched": false,
    "completeness_score": 0.82,
    "verification_score": 0.8
  },
  {
    "name": "Dress for Success East Bay",
    "primary_category": "clothing",
    "categories": ["clothing", "employment"],
    "description": "Provides professional attire, career development tools, and network of support for women entering the workforce.",
    "services": [
      "Professional clothing",
      "Career coaching",
      "Interview preparation",
      "Networking events",
      "Ongoing wardrobe support"
    ],
    "address": "449 15th St, Suite 200",
    "city": "Oakland",
    "state": "CA",
    "zip_code": "94612",
    "latitude": 37.8044,
    "longitude": -122.2721,
    "phone": "(510) 891-2832",
    "email": "info@eastbay.dressforsuccess.org",
    "website": "https://www.eastbay.dressforsuccess.org",
    "hours": "By appointment only, Mon-Fri 10am-4pm",
    "eligibility_criteria": "Women actively job searching or recently employed, referral from partner organization required",
    "languages": ["English", "Spanish"],
    "accessibility": "Wheelchair accessible",
    "tags": ["women-only", "professional-attire", "career-development"],
    "status": "active",
    "verified": true,
    "ai_enriched": false,
    "completeness_score": 0.9,
    "verification_score": 0.88
  },
  {
    "name": "Allen Temple Baptist Church - Community Outreach",
    "primary_category": "faith-based",
    "categories": ["faith-based", "general-support"],
    "description": "Historic Oakland church with extensive community programs including food pantry, job readiness, and family support services.",
    "services": [
      "Food pantry",
      "Job readiness program",
      "Youth programs",
      "Senior services",
      "Emergency assistance",
      "Worship services"
    ],
    "address": "8500 A St",
    "city": "Oakland",
    "state": "CA",
    "zip_code": "94621",
    "latitude": 37.7461,
    "longitude": -122.1778,
    "phone": "(510) 569-9010",
    "email": "info@allentemple.org",
    "website": "https://www.allentemple.org",
    "hours": "Office: Mon-Fri 9am-5pm, Food pantry: Tue 10am-1pm",
    "eligibility_criteria": "Open to all Oakland residents regardless of faith, some programs have specific criteria",
    "languages": ["English"],
    "accessibility": "Wheelchair accessible, large campus",
    "tags": ["food-pantry", "job-readiness", "family-services"],
    "status": "active",
    "verified": true,
    "ai_enriched": false,
    "completeness_score": 0.89,
    "verification_score": 0.87
  },
  {
    "name": "Acts Full Gospel Church - New Beginnings Program",
    "primary_category": "faith-based",
    "categories": ["faith-based", "substance-abuse-treatment", "housing"],
    "description": "Faith-based residential recovery program for men struggling with addiction and homelessness.",
    "services": [
      "Residential recovery program",
      "Substance abuse counseling",
      "Life skills training",
      "Employment assistance",
      "Spiritual support"
    ],
    "address": "1034 66th Ave",
    "city": "Oakland",
    "state": "CA",
    "zip_code": "94621",
    "latitude": 37.7584,
    "longitude": -122.1732,
    "phone": "(510) 562-1992",
    "email": "newbeginnings@actsfullgospel.org",
    "website": "https://www.actsfullgospel.org/programs",
    "hours": "24/7 residential program, office hours Mon-Fri 9am-5pm",
    "eligibility_criteria": "Men struggling with addiction and/or homelessness, must complete intake interview",
    "languages": ["English", "Spanish"],
    "accessibility": "Limited accessibility, call for details",
    "tags": ["men-only", "residential-program", "faith-based-recovery"],
    "status": "active",
    "verified": true,
    "ai_enriched": false,
    "completeness_score": 0.88,
    "verification_score": 0.85
  },
  {
    "name": "Coalition for Safe Oakland Communities (CSOC)",
    "primary_category": "general-support",
    "categories": ["general-support", "employment"],
    "description": "Community-based organization providing wraparound services for Oakland residents affected by violence and incarceration.",
    "services": [
      "Case management",
      "Employment support",
      "Conflict resolution",
      "Victim services",
      "Family reunification",
      "Community events"
    ],
    "address": "1722 Broadway, Suite 300",
    "city": "Oakland",
    "state": "CA",
    "zip_code": "94612",
    "latitude": 37.8078,
    "longitude": -122.2704,
    "phone": "(510) 444-1410",
    "email": "info@safeoakland.org",
    "website": "https://www.safeoakland.org",
    "hours": "Mon-Fri 9am-6pm",
    "eligibility_criteria": "Oakland residents affected by violence or incarceration",
    "languages": ["English", "Spanish"],
    "accessibility": "Wheelchair accessible",
    "tags": ["violence-prevention", "reentry-friendly", "case-management"],
    "status": "active",
    "verified": true,
    "ai_enriched": false,
    "completeness_score": 0.87,
    "verification_score": 0.86
  },
  {
    "name": "Oakland Public Library - Main Branch",
    "primary_category": "general-support",
    "categories": ["general-support", "education"],
    "description": "Public library providing free computer access, internet, resume help, and community resources.",
    "services": [
      "Computer access",
      "Internet access",
      "Resume assistance",
      "Job search resources",
      "Educational programs",
      "Free library card"
    ],
    "address": "125 14th St",
    "city": "Oakland",
    "state": "CA",
    "zip_code": "94612",
    "latitude": 37.8031,
    "longitude": -122.2726,
    "phone": "(510) 238-3134",
    "email": "oaklibinfo@oaklandlibrary.org",
    "website": "https://www.oaklandlibrary.org",
    "hours": "Mon-Tue 12pm-8pm, Wed-Sat 10am-5:30pm, Sun 12pm-5pm",
    "eligibility_criteria": "Free library card for all Oakland residents",
    "languages": ["English", "Spanish", "Chinese", "Vietnamese"],
    "accessibility": "Wheelchair accessible, elevators, accessible computers",
    "tags": ["computer-access", "internet", "job-resources", "free-library"],
    "status": "active",
    "verified": true,
    "ai_enriched": false,
    "completeness_score": 0.91,
    "verification_score": 0.93
  },
  {
    "name": "Safe Passages - Family Resource Centers",
    "primary_category": "general-support",
    "categories": ["general-support"],
    "description": "Family resource centers throughout Oakland providing parent education, child development services, and family support.",
    "services": [
      "Parent education",
      "Child development services",
      "Case management",
      "Food assistance",
      "Early childhood education",
      "Family support groups"
    ],
    "address": "Multiple locations - main office 1539 Fruitvale Ave",
    "city": "Oakland",
    "state": "CA",
    "zip_code": "94601",
    "latitude": 37.781,
    "longitude": -122.2245,
    "phone": "(510) 534-6656",
    "email": "info@safepassages.org",
    "website": "https://www.safepassages.org",
    "hours": "Mon-Fri 9am-5pm, varies by location",
    "eligibility_criteria": "Families with children 0-18 in Oakland",
    "languages": ["English", "Spanish", "Mam"],
    "accessibility": "Wheelchair accessible at most locations",
    "tags": ["family-services", "parent-education", "early-childhood"],
    "status": "active",
    "verified": true,
    "ai_enriched": false,
    "completeness_score": 0.88,
    "verification_score": 0.86
  },
  {
    "name": "Alameda County Office of Education - Community Schools",
    "primary_category": "general-support",
    "categories": ["general-support", "education"],
    "description": "Coordinates community schools initiative providing wraparound services at school sites including health, social services, and family engagement.",
    "services": [
      "School-based health centers",
      "Family resource centers",
      "After-school programs",
      "Parent engagement",
      "Community partnerships"
    ],
    "address": "313 W Winton Ave",
    "city": "Oakland",
    "state": "CA",
    "zip_code": "94606",
    "latitude": 37.7998,
    "longitude": -122.2544,
    "phone": "(510) 670-4000",
    "email": "info@acoe.org",
    "website": "https://www.acoe.org/communityschools",
    "hours": "Mon-Fri 8am-5pm, school-based services vary",
    "eligibility_criteria": "Students and families in Oakland and Alameda County public schools",
    "languages": ["English", "Spanish", "Chinese", "Vietnamese"],
    "accessibility": "Wheelchair accessible at school sites",
    "tags": ["school-based-services", "family-engagement", "health-services"],
    "status": "active",
    "verified": true,
    "ai_enriched": false,
    "completeness_score": 0.87,
    "verification_score": 0.88
  },
  {
    "name": "Oakland Workforce Development Board",
    "primary_category": "employment",
    "categories": ["employment", "general-support"],
    "description": "Coordinates Oakland's workforce system connecting job seekers with training and employment opportunities.",
    "services": [
      "Job search assistance",
      "Skills training",
      "Career counseling",
      "Employer connections",
      "Youth employment programs"
    ],
    "address": "1212 Broadway, Suite 300",
    "city": "Oakland",
    "state": "CA",
    "zip_code": "94612",
    "latitude": 37.802,
    "longitude": -122.2723,
    "phone": "(510) 768-3900",
    "email": "info@oaklandworkforce.org",
    "website": "https://www.oaklandworkforce.org",
    "hours": "Mon-Fri 9am-5pm",
    "eligibility_criteria": "Oakland job seekers, priority for individuals facing barriers to employment",
    "languages": ["English", "Spanish"],
    "accessibility": "Wheelchair accessible",
    "tags": ["workforce-development", "job-training", "youth-employment"],
    "status": "active",
    "verified": true,
    "ai_enriched": false,
    "completeness_score": 0.86,
    "verification_score": 0.87
  }
]
